stop_id,stop_code,stop_name,stop_desc,stop_lat,stop_lon,zone_id,stop_url,location_type,platform_code
1_01,,米沢スキー場前,,37.863098,140.231997,1_01,,0,
10_01,,工業団地入口,,37.895684,140.162863,10_01,,0,
10_02,,工業団地入口,,37.895615,140.163126,10_02,,0,
11_01,,テクノセンター前,,37.902993,140.165917,11_01,,0,
11_02,,テクノセンター前,,37.90308,140.165929,11_02,,0,
12_01,,万世小学校前,,37.902677,140.163007,12_01,,0,
12_02,,万世小学校前,,37.902781,140.163091,12_02,,0,
13_01,,牛森,,37.902888,140.159887,13_01,,0,
13_02,,牛森,,37.902985,140.159835,13_02,,0,
14_01,,桑山団地東,,37.903299,140.155491,14_01,,0,
14_02,,桑山団地東,,37.903377,140.155606,14_02,,0,
15_01,,桑山団地中,,37.903678,140.153163,15_01,,0,
16_01,,桑山公園前,,37.902716,140.151014,16_01,,0,
17_01,,桑山団地西,,37.901314,140.149631,17_01,,0,
18_01,,アルカディア,,37.911237,140.142785,18_01,,0,
19_01,,米工前,,37.916316,140.145977,19_01,,0,
2_01,,川越石,,37.870669,140.220056,2_01,,0,
20_01,,七中前,,37.920626,140.146128,20_01,,0,
21_01,,金谷口,,37.901408,140.147512,21_01,,0,
22_01,,桑山団地口,,37.898569,140.147017,22_01,,0,
23_01,,片子,,37.900594,140.135152,23_01,,0,
24_01,,東大通,,37.903339,140.132645,24_01,,0,
24_02,,東大通,,37.903765,140.13224,24_02,,0,
25_01,,東一丁目,,37.906248,140.127306,25_01,,0,
25_02,,東一丁目,,37.906154,140.127457,25_02,,0,
26_01,,米沢駅前,,37.909013,140.128138,26_01,,0,
27_01,,米沢営業所,,37.910214,140.123648,27_01,,0,
27_02,,米沢営業所,,37.910259,140.124146,27_02,,0,
28_01,,駅前四丁目,,37.91088,140.120057,28_01,,0,
28_02,,駅前四丁目,,37.910689,140.121759,28_02,,0,
29_01,,住之江橋,　,37.911354,140.115704,29_01,,0,
29_02,,住之江橋,,37.911229,140.116934,29_02,,0,
3_01,,刈安,,37.87175,140.2079,3_01,,0,
30_01,,大町,,37.911711,140.113521,30_01,,0,
30_02,,大町,,37.912414,140.112977,30_02,,0,
31_01,,ナセＢＡ前,,37.912382,140.110224,31_01,,0,
32_01,,皇大神社前,,37.915001,140.109704,32_01,,0,
33_01,,中央一丁目,,37.915077,140.110812,33_01,,0,
34_01,,中央三丁目,,37.917232,140.110313,34_01,,0,
34_02,,中央三丁目,,37.91776,140.110563,34_02,,0,
35_01,,中央五丁目,,37.919664,140.109132,35_01,,0,
35_02,,中央五丁目,,37.920202,140.109373,35_02,,0,
36_01,,春日一丁目,,37.921361,140.11019,36_01,,0,
36_02,,春日一丁目,,37.921879,140.110551,36_02,,0,
37_01,,米沢市役所前,,37.921524,140.116264,37_01,,0,
37_02,,米沢市役所前,,37.921346,140.11617,37_02,,0,
38_01,,駅前二丁目,,37.909219,140.12512,38_01,,0,
38_02,,駅前二丁目,,37.90927,140.124488,38_02,,0,
39_01,,舟山病院前,,37.909106,140.122879,39_01,,0,
39_02,,舟山病院前,,37.909151,140.122178,39_02,,0,
4_01,,福祉の里入口,,37.884021,140.193595,4_01,,0,
40_01,,相生橋西,,37.907855,140.117623,40_01,,0,
40_02,,相生橋西,,37.908091,140.117441,40_02,,0,
41_02,,県営相生ｱﾊﾟｰﾄ東,,37.905049,140.11675,41_02,,0,
42_01,,市立病院前,,37.905467,140.118408,42_01,,0,
45_01,,福田町西,,37.902653,140.114868,45_01,,0,
45_02,,福田町西,,37.902826,140.114441,45_02,,0,
46_01,,大町一丁目,,37.904165,140.111555,46_01,,0,
46_02,,大町一丁目,,37.904386,140.111691,46_02,,0,
47_01,,税務署前,,37.907095,140.111455,47_01,,0,
47_02,,税務署前,,37.907244,140.111639,47_02,,0,
48_01,,上杉神社前,,37.907951,140.107934,48_01,,0,
48_02,,上杉神社前,,37.908374,140.108511,48_02,,0,
49_01,,城南一丁目,,37.906255,140.10766,49_01,,0,
49_02,,城南一丁目,,37.905069,140.107414,49_02,,0,
5_01,,梓川,,37.883947,140.18934,5_01,,0,
5_02,,梓川,,37.884142,140.189254,5_02,,0,
50_01,,城南二丁目,,37.903098,140.107249,50_01,,0,
50_02,,城南二丁目,,37.902731,140.107113,50_02,,0,
51_01,,山大正門,,37.901348,140.10594,51_01,,0,
51_02,,山大正門,,37.901485,140.105836,51_02,,0,
52_01,,二中前,,37.902395,140.099889,52_01,,0,
52_02,,二中前,,37.902525,140.099794,52_02,,0,
53_01,,愛宕小前,,37.904453,140.095667,53_01,,0,
53_02,,愛宕小前,,37.904658,140.095692,53_02,,0,
54_01,,西部こども園前,,37.90832,140.093244,54_01,,0,
54_02,,西部こども園前,,37.908314,140.093406,54_02,,0,
55_01,,御廟所西口,,37.912727,140.090476,55_01,,0,
55_02,,御廟所西口,,37.91313,140.090403,55_02,,0,
56_01,,西部ｺﾐｭﾆﾃｨｾﾝﾀｰ前,,37.91564,140.090186,56_01,,0,
56_02,,西部ｺﾐｭﾆﾃｨｾﾝﾀｰ前,,37.91562,140.090329,56_02,,0,
57_01,,城西郵便局前,,37.916157,140.095519,57_01,,0,
57_02,,城西郵便局前,,37.916061,140.095618,57_02,,0,
58_01,,すこやかセンター,,37.917112,140.099916,58_01,,0,
59_01,,法泉寺西,,37.915795,140.101278,59_01,,0,
59_02,,法泉寺西,,37.915693,140.101369,59_02,,0,
6_01,,木場,,37.886893,140.181692,6_01,,0,
6_02,,木場,,37.887124,140.181476,6_02,,0,
60_01,,ＮＴＴ前,,37.915424,140.107026,60_01,,0,
60_02,,ＮＴＴ前,,37.915315,140.107163,60_02,,0,
61_01,,中央二丁目,,37.915291,140.109307,61_01,,0,
61_02,,中央二丁目,,37.915205,140.10915,61_02,,0,
62_01,,中央四丁目,,37.918977,140.108238,62_01,,0,
62_02,,中央四丁目,,37.919099,140.107933,62_02,,0,
63_01,,三友堂病院前,,37.919349,140.105371,63_01,,0,
63_02,,三友堂病院前,,37.919569,140.104435,63_02,,0,
64_01,,信夫町,,37.92086,140.100776,64_01,,0,
64_02,,信夫町,,37.922393,140.100512,64_02,,0,
65_01,,総合公園口,,37.923415,140.10271,65_01,,0,
65_02,,総合公園口,,37.923295,140.102918,65_02,,0,
66_01,,イオン米沢前,,37.922832,140.107819,66_01,,0,
66_02,,イオン米沢前,,37.922814,140.107268,66_02,,0,
67_01,,年金事務所西,,37.922065,140.112709,67_01,,0,
67_02,,年金事務所西,,37.921952,140.112639,67_02,,0,
68_01,,文化センター南,,37.919108,140.117384,68_01,,0,
68_02,,文化センター南,,37.9191,140.117247,68_02,,0,
69_01,,北村公園西,,37.917915,140.115752,69_01,,0,
69_02,,北村公園西,,37.918034,140.115619,69_02,,0,
7_01,,梓山,,37.888923,140.177452,7_01,,0,
70_01,,金池一丁目,,37.916933,140.114167,70_01,,0,
70_02,,金池一丁目,,37.915964,140.113791,70_02,,0,
71_01,,東二丁目,,37.902523,140.12526,71_01,,0,
71_02,,東二丁目,,37.902538,140.125177,71_02,,0,
72_01,,通町八丁目,,37.89904,140.123906,72_01,,0,
72_02,,通町八丁目,,37.899193,140.12374,72_02,,0,
73_01,,通町郵便局前,,37.894766,140.125776,73_01,,0,
73_02,,通町郵便局前,,37.894805,140.125666,73_02,,0,
74_01,,通町六丁目,,37.892646,140.126717,74_01,,0,
74_02,,通町六丁目,,37.892501,140.126682,74_02,,0,
75_01,,栄養大・米短前,,37.891247,140.124257,75_01,,0,
76_01,,通町三丁目,,37.888132,140.131731,76_01,,0,
77_01,,国立米沢病院前,,37.882925,140.139816,77_01,,0,
78_01,,通町二丁目,,37.888882,140.123681,78_01,,0,
78_02,,通町二丁目,,37.888897,140.123561,78_02,,0,
79_01,,吾妻町南,,37.889371,140.119394,79_01,,0,
79_02,,吾妻町南,,37.889408,140.119538,79_02,,0,
8_01,,松林寺口,,37.891404,140.171284,8_01,,0,
8_02,,松林寺口,,37.891768,140.170709,8_02,,0,
80_01,,太田町五丁目,,37.890347,140.115217,80_01,,0,
80_02,,太田町五丁目,,37.889968,140.116407,80_02,,0,
81_01,,興望館前,,37.893568,140.114126,81_01,,0,
81_02,,興望館前,,37.893727,140.114253,81_02,,0,
82_01,,太田町三丁目,,37.89694,140.113743,82_01,,0,
82_02,,太田町三丁目,,37.897779,140.113366,82_02,,0,
83_01,,太田町二丁目,,37.899316,140.112635,83_01,,0,
83_02,,太田町二丁目,,37.899419,140.112693,83_02,,0,
84_01,,本町,,37.902266,140.11119,84_01,,0,
84_02,,本町,,37.902257,140.111289,84_02,,0,
85_01,,南部小前,,37.904092,140.10819,85_01,,0,
85_02,,南部小前,,37.903928,140.108237,85_02,,0,
86_01,,九里学園前,,37.90707,140.109047,86_01,,0,
86_02,,九里学園前,,37.907519,140.109352,86_02,,0,
87_01,,門東町,,37.91082,140.110184,87_01,,0,
87_02,,門東町,,37.911189,140.110415,87_02,,0,
9_01,,梓神社前,,37.89319,140.167167,9_01,,0,
